[
	{
		"code": "ABE",
		"name": "Lehigh Valley International",
		"lat": 40.65272222,
		"long": -75.440000002,
		"city": "Allentown/Bethlehem/Easton, PA",
		"state": "PA"
	},
	{
		"code": "ABI",
		"name": "Abilene Regional",
		"lat": 32.41064814666667,
		"long": -99.68111111,
		"city": "Abilene, TX",
		"state": "TX"
	},
	{
		"code": "ABQ",
		"name": "Albuquerque International Sunport",
		"lat": 35.040000002,
		"long": -106.608277778,
		"city": "Albuquerque, NM",
		"state": "NM"
	},
	{
		"code": "ABR",
		"name": "Aberdeen Regional",
		"lat": 45.44828703833334,
		"long": -98.42217592499999,
		"city": "Aberdeen, SD",
		"state": "SD"
	},
	{
		"code": "ABY",
		"name": "Southwest Georgia Regional",
		"lat": 31.53388889,
		"long": -84.195277775,
		"city": "Albany, GA",
		"state": "GA"
	},
	{
		"code": "ACK",
		"name": "Nantucket Memorial",
		"lat": 41.253777782,
		"long": -70.06005555600001,
		"city": "Nantucket, MA",
		"state": "MA"
	},
	{
		"code": "ACT",
		"name": "Waco Regional",
		"lat": 31.611805555,
		"long": -97.229444445,
		"city": "Waco, TX",
		"state": "TX"
	},
	{
		"code": "ACV",
		"name": "Arcata | California Redwood Coast Humboldt County",
		"lat": 40.978101855,
		"long": -124.10828703499999,
		"city": "Arcata/Eureka, CA",
		"state": "CA"
	},
	{
		"code": "ACY",
		"name": "Nafec Atlantic City | Nafec Atl | Atlantic City International",
		"lat": 39.456944445000005,
		"long": -74.57777778,
		"city": "Atlantic City, NJ",
		"state": "NJ"
	},
	{
		"code": "ADK",
		"name": "Adak NS | Adak",
		"lat": 51.880694446666666,
		"long": -176.64462962833332,
		"city": "Adak Island, AK",
		"state": "AK"
	},
	{
		"code": "ADQ",
		"name": "Kodiak Airport",
		"lat": 57.74986111,
		"long": -152.49388889,
		"city": "Kodiak, AK",
		"state": "AK"
	},
	{
		"code": "AEX",
		"name": "England AFB | Alexandria International",
		"lat": 31.325833335,
		"long": -92.547777775,
		"city": "Alexandria, LA",
		"state": "LA"
	},
	{
		"code": "AGS",
		"name": "Bush Field | Augusta Regional at Bush Field",
		"lat": 33.36944444666667,
		"long": -81.96444444,
		"city": "Augusta, GA",
		"state": "GA"
	},
	{
		"code": "ALB",
		"name": "Albany International",
		"lat": 42.7475,
		"long": -73.80361110999999,
		"city": "Albany, NY",
		"state": "NY"
	},
	{
		"code": "ALO",
		"name": "Waterloo Regional",
		"lat": 42.556527775000006,
		"long": -92.4,
		"city": "Waterloo, IA",
		"state": "IA"
	},
	{
		"code": "ALW",
		"name": "Walla Walla Regional",
		"lat": 46.09453703666666,
		"long": -118.28745370333333,
		"city": "Walla Walla, WA",
		"state": "WA"
	},
	{
		"code": "AMA",
		"name": "Amarillo International | Rick Husband Amarillo International",
		"lat": 35.22462962666666,
		"long": -101.71657407,
		"city": "Amarillo, TX",
		"state": "TX"
	},
	{
		"code": "ANC",
		"name": "Anchorage International | Ted Stevens Anchorage International",
		"lat": 61.173472221666664,
		"long": -149.99504629833334,
		"city": "Anchorage, AK",
		"state": "AK"
	},
	{
		"code": "APN",
		"name": "Phelps/Collins | Alpena County Regional",
		"lat": 45.079861115,
		"long": -83.55805555500001,
		"city": "Alpena, MI",
		"state": "MI"
	},
	{
		"code": "ART",
		"name": "Watertown International",
		"lat": 43.99172221799999,
		"long": -76.02027777800001,
		"city": "Watertown, NY",
		"state": "NY"
	},
	{
		"code": "ASE",
		"name": "Aspen Pitkin County Sardy Field",
		"lat": 39.22283333399999,
		"long": -106.868666666,
		"city": "Aspen, CO",
		"state": "CO"
	},
	{
		"code": "ATL",
		"name": "Atlanta Municipal | William B. Hartsfield Atlanta International | Hartsfield-Jackson Atlanta International",
		"lat": 33.63845238142858,
		"long": -84.42761904857143,
		"city": "Atlanta, GA",
		"state": "GA"
	},
	{
		"code": "ATW",
		"name": "Outagamie County Regional | Appleton International",
		"lat": 44.258000004,
		"long": -88.519333336,
		"city": "Appleton, WI",
		"state": "WI"
	},
	{
		"code": "AUS",
		"name": "Austin - Bergstrom International | Robert Mueller Municipal",
		"lat": 30.246250000000003,
		"long": -97.685694445,
		"city": "Austin, TX",
		"state": "TX"
	},
	{
		"code": "AVL",
		"name": "Asheville Regional",
		"lat": 35.43522222,
		"long": -82.54211111,
		"city": "Asheville, NC",
		"state": "NC"
	},
	{
		"code": "AVP",
		"name": "Wilkes Barre Scranton International",
		"lat": 41.33861111,
		"long": -75.72383333,
		"city": "Scranton/Wilkes-Barre, PA",
		"state": "PA"
	},
	{
		"name": "Phoenix - Mesa Gateway",
		"lat": 33.30777778,
		"long": -111.65555556,
		"code": "AZA",
		"city": "Phoenix, AZ",
		"state": "AZ"
	},
	{
		"code": "AZO",
		"name": "Kalamazoo/Battle Creek International",
		"lat": 42.235416665,
		"long": -85.55263889,
		"city": "Kalamazoo, MI",
		"state": "MI"
	},
	{
		"code": "BDL",
		"name": "Bradley International",
		"lat": 41.938703705,
		"long": -72.68328703499999,
		"city": "Hartford, CT",
		"state": "CT"
	},
	{
		"code": "BET",
		"name": "Bethel Airport",
		"lat": 60.781527775,
		"long": -161.83430555500001,
		"city": "Bethel, AK",
		"state": "AK"
	},
	{
		"code": "BFF",
		"name": "William B. Heilig Field | Western Neb. Regional/William B. Heilig Field",
		"lat": 41.87490741,
		"long": -103.59925926,
		"city": "Scottsbluff, NE",
		"state": "NE"
	},
	{
		"code": "BFL",
		"name": "Meadows Field",
		"lat": 35.4325,
		"long": -119.05555555666666,
		"city": "Bakersfield, CA",
		"state": "CA"
	},
	{
		"code": "BGM",
		"name": "Greater Binghamton/Edwin A. Link Field",
		"lat": 42.207055554,
		"long": -75.97761111,
		"city": "Binghamton, NY",
		"state": "NY"
	},
	{
		"code": "BGR",
		"name": "Bangor International",
		"lat": 44.80763889,
		"long": -68.82791667000001,
		"city": "Bangor, ME",
		"state": "ME"
	},
	{
		"code": "BHM",
		"name": "Birmingham Airport | Birmingham International | Birmingham-Shuttlesworth International",
		"lat": 33.563263892500004,
		"long": -86.754722225,
		"city": "Birmingham, AL",
		"state": "AL"
	},
	{
		"code": "BIL",
		"name": "Billings Logan International",
		"lat": 45.807500000000005,
		"long": -108.54305555666667,
		"city": "Billings, MT",
		"state": "MT"
	},
	{
		"code": "BIS",
		"name": "Bismarck Municipal",
		"lat": 46.775833335,
		"long": -100.74916666499999,
		"city": "Bismarck/Mandan, ND",
		"state": "ND"
	},
	{
		"code": "BJI",
		"name": "Bemidji Municipal | Bemidji/Beltrami County | Bemidji Regional",
		"lat": 47.5098611075,
		"long": -94.93416666499999,
		"city": "Bemidji, MN",
		"state": "MN"
	},
	{
		"code": "BLI",
		"name": "Bellingham International",
		"lat": 48.79361111,
		"long": -122.53611111000001,
		"city": "Bellingham, WA",
		"state": "WA"
	},
	{
		"code": "BLV",
		"name": "Scott AFB | Scott AFB/MidAmerica",
		"lat": 38.54402778,
		"long": -89.843194445,
		"city": "Belleville, IL",
		"state": "IL"
	},
	{
		"code": "BMI",
		"name": "Central Illinois Regional | Central Il Regional Airport at Bloomington",
		"lat": 40.47879629333333,
		"long": -88.91972222,
		"city": "Bloomington/Normal, IL",
		"state": "IL"
	},
	{
		"code": "BNA",
		"name": "Nashville International",
		"lat": 36.125555555,
		"long": -86.68,
		"city": "Nashville, TN",
		"state": "TN"
	},
	{
		"code": "BOI",
		"name": "Boise Air Terminal",
		"lat": 43.56486111,
		"long": -116.22388889,
		"city": "Boise, ID",
		"state": "ID"
	},
	{
		"code": "BOS",
		"name": "Logan International",
		"lat": 42.363333335,
		"long": -71.00625,
		"city": "Boston, MA",
		"state": "MA"
	},
	{
		"code": "BPT",
		"name": "Jack Brooks Regional | Southeast Texas Regional | Jefferson County",
		"lat": 29.95083333,
		"long": -94.02013889,
		"city": "Beaumont/Port Arthur, TX",
		"state": "TX"
	},
	{
		"code": "BQK",
		"name": "Glynco Jetport | Brunswick Golden Isles",
		"lat": 31.258981483333333,
		"long": -81.46638889,
		"city": "Brunswick, GA",
		"state": "GA"
	},
	{
		"code": "BRD",
		"name": "Brainerd/Crow Wing County | Brainerd Lakes Regional",
		"lat": 46.401190477142855,
		"long": -94.13555555714285,
		"city": "Brainerd, MN",
		"state": "MN"
	},
	{
		"code": "BRO",
		"name": "Brownsville South Padre Island International",
		"lat": 25.907222220000005,
		"long": -97.42638888833334,
		"city": "Brownsville, TX",
		"state": "TX"
	},
	{
		"code": "BRW",
		"name": "Wiley Post/Will Rogers Memorial",
		"lat": 71.285,
		"long": -156.76811110999998,
		"city": "Barrow, AK",
		"state": "AK"
	},
	{
		"code": "BTM",
		"name": "Bert Mooney",
		"lat": 45.952916665000004,
		"long": -112.495694445,
		"city": "Butte, MT",
		"state": "MT"
	},
	{
		"code": "BTR",
		"name": "Baton Rouge Metropolitan/Ryan Field",
		"lat": 30.532666670000005,
		"long": -91.15011111199999,
		"city": "Baton Rouge, LA",
		"state": "LA"
	},
	{
		"code": "BTV",
		"name": "Burlington International",
		"lat": 44.47236111,
		"long": -73.153194445,
		"city": "Burlington, VT",
		"state": "VT"
	},
	{
		"code": "BUF",
		"name": "Greater Buffalo International | Buffalo Niagara International",
		"lat": 42.940648151666664,
		"long": -78.73240740833334,
		"city": "Buffalo, NY",
		"state": "NY"
	},
	{
		"code": "BUR",
		"name": "Hollywood-Burbank Midpoint | Bob Hope",
		"lat": 34.200185186666666,
		"long": -118.35805555666667,
		"city": "Burbank, CA",
		"state": "CA"
	},
	{
		"code": "BWI",
		"name": "Baltimore/Washington International | Baltimore/Washington International Thurgood Marshall",
		"lat": 39.17544444400001,
		"long": -76.668888888,
		"city": "Baltimore, MD",
		"state": "MD"
	},
	{
		"code": "BZN",
		"name": "Gallatin Field | Bozeman Yellowstone International",
		"lat": 45.777870369999995,
		"long": -111.15268518333333,
		"city": "Bozeman, MT",
		"state": "MT"
	},
	{
		"code": "CAE",
		"name": "Columbia Metropolitan",
		"lat": 33.93861111333333,
		"long": -81.11814814666667,
		"city": "Columbia, SC",
		"state": "SC"
	},
	{
		"code": "CAK",
		"name": "Akron-Canton Regional",
		"lat": 40.914444445,
		"long": -81.44263889000001,
		"city": "Akron, OH",
		"state": "OH"
	},
	{
		"code": "CDC",
		"name": "Cedar City Regional",
		"lat": 37.701666665000005,
		"long": -113.0975,
		"city": "Cedar City, UT",
		"state": "UT"
	},
	{
		"code": "CDV",
		"name": "Cordova Mile 13 | Mile 13 Field | Merle K Mudhole Smith",
		"lat": 60.49259259666667,
		"long": -145.4725,
		"city": "Cordova, AK",
		"state": "AK"
	},
	{
		"code": "CGI",
		"name": "Cape Girardeau Regional",
		"lat": 37.224444445,
		"long": -89.57124999999999,
		"city": "Cape Girardeau, MO",
		"state": "MO"
	},
	{
		"code": "CHA",
		"name": "Lovell Field",
		"lat": 35.035833335,
		"long": -85.20361111,
		"city": "Chattanooga, TN",
		"state": "TN"
	},
	{
		"code": "CHO",
		"name": "Charlottesville Albemarle",
		"lat": 38.139611110000004,
		"long": -78.45261111200001,
		"city": "Charlottesville, VA",
		"state": "VA"
	},
	{
		"code": "CHS",
		"name": "Charleston International | Charleston AFB/International",
		"lat": 32.898888889999995,
		"long": -80.03972222499999,
		"city": "Charleston, SC",
		"state": "SC"
	},
	{
		"code": "CID",
		"name": "Cedar Rapids Municipal | The Eastern Iowa",
		"lat": 41.88453703333334,
		"long": -91.70768518333334,
		"city": "Cedar Rapids/Iowa City, IA",
		"state": "IA"
	},
	{
		"code": "CIU",
		"name": "Chippewa County International",
		"lat": 46.246388885,
		"long": -84.469305555,
		"city": "Sault Ste. Marie, MI",
		"state": "MI"
	},
	{
		"code": "CKB",
		"name": "Benedum | North Central West Virginia",
		"lat": 39.296888892,
		"long": -80.228111112,
		"city": "Clarksburg/Fairmont, WV",
		"state": "WV"
	},
	{
		"code": "CLE",
		"name": "Cleveland-Hopkins International",
		"lat": 41.409722218,
		"long": -81.853777776,
		"city": "Cleveland, OH",
		"state": "OH"
	},
	{
		"code": "CLL",
		"name": "Easterwood Field",
		"lat": 30.588703703333334,
		"long": -96.36361111000001,
		"city": "College Station/Bryan, TX",
		"state": "TX"
	},
	{
		"code": "CLT",
		"name": "Douglas Municipal | Charlotte Douglas International",
		"lat": 35.215555556666665,
		"long": -80.94268518666667,
		"city": "Charlotte, NC",
		"state": "NC"
	},
	{
		"code": "CMH",
		"name": "Port Columbus International | John Glenn Columbus International",
		"lat": 39.99634259166666,
		"long": -82.88981481166667,
		"city": "Columbus, OH",
		"state": "OH"
	},
	{
		"code": "CMI",
		"name": "University of Illinois/Willard",
		"lat": 40.039305555,
		"long": -88.27875,
		"city": "Champaign/Urbana, IL",
		"state": "IL"
	},
	{
		"code": "CMX",
		"name": "Houghton County Memorial",
		"lat": 47.168055555,
		"long": -88.48777778,
		"city": "Hancock/Houghton, MI",
		"state": "MI"
	},
	{
		"code": "CNY",
		"name": "Canyonlands Field",
		"lat": 38.757430555,
		"long": -109.7519444425,
		"city": "Moab, UT",
		"state": "UT"
	},
	{
		"code": "COD",
		"name": "Yellowstone Regional",
		"lat": 44.518055555000004,
		"long": -109.025694445,
		"city": "Cody, WY",
		"state": "WY"
	},
	{
		"code": "COS",
		"name": "Peterson Field | City of Colorado Springs Municipal",
		"lat": 38.80736111,
		"long": -104.705,
		"city": "Colorado Springs, CO",
		"state": "CO"
	},
	{
		"code": "COU",
		"name": "Columbia Regional",
		"lat": 38.816833333999995,
		"long": -92.218944446,
		"city": "Columbia, MO",
		"state": "MO"
	},
	{
		"code": "CPR",
		"name": "Casper/Natrona County International",
		"lat": 42.907277778,
		"long": -106.46372222,
		"city": "Casper, WY",
		"state": "WY"
	},
	{
		"code": "CRP",
		"name": "Corpus Christi International",
		"lat": 27.771006943750002,
		"long": -97.50152777625001,
		"city": "Corpus Christi, TX",
		"state": "TX"
	},
	{
		"code": "CRW",
		"name": "Kanawha | Yeager",
		"lat": 38.37420635,
		"long": -81.59301587714286,
		"city": "Charleston/Dunbar, WV",
		"state": "WV"
	},
	{
		"code": "CSG",
		"name": "Columbus Metropolitan | Columbus Airport",
		"lat": 32.516333334,
		"long": -84.93888889,
		"city": "Columbus, GA",
		"state": "GA"
	},
	{
		"code": "CVG",
		"name": "Cincinnati/Northern Kentucky International",
		"lat": 39.048333334999995,
		"long": -84.668194445,
		"city": "Cincinnati, OH",
		"state": "KY"
	},
	{
		"code": "CWA",
		"name": "Central Wisconsin",
		"lat": 44.77986111,
		"long": -89.66291667,
		"city": "Mosinee, WI",
		"state": "WI"
	},
	{
		"code": "DAB",
		"name": "Daytona Beach Regional | Daytona Beach International",
		"lat": 29.18166666666667,
		"long": -81.05453704,
		"city": "Daytona Beach, FL",
		"state": "FL"
	},
	{
		"code": "DAL",
		"name": "Dallas Love Field",
		"lat": 32.8467361075,
		"long": -96.851805555,
		"city": "Dallas, TX",
		"state": "TX"
	},
	{
		"code": "DAY",
		"name": "James M Cox/Dayton International",
		"lat": 39.901666665,
		"long": -84.21972222,
		"city": "Dayton, OH",
		"state": "OH"
	},
	{
		"code": "DBQ",
		"name": "Dubuque Regional",
		"lat": 42.405972219999995,
		"long": -90.71013888499999,
		"city": "Dubuque, IA",
		"state": "IA"
	},
	{
		"code": "DCA",
		"name": "Ronald Reagan Washington National",
		"lat": 38.85166666600001,
		"long": -77.03761111200001,
		"city": "Washington, DC",
		"state": "VA"
	},
	{
		"code": "DEN",
		"name": "Stapleton International | Denver International",
		"lat": 39.818055555,
		"long": -104.77638888999999,
		"city": "Denver, CO",
		"state": "CO"
	},
	{
		"code": "DFW",
		"name": "Dallas/Fort Worth International | Dallas Fort Worth Regional",
		"lat": 32.896527775,
		"long": -97.03708333499999,
		"city": "Dallas/Fort Worth, TX",
		"state": "TX"
	},
	{
		"code": "DHN",
		"name": "Dothan Regional",
		"lat": 31.320555555,
		"long": -85.448888885,
		"city": "Dothan, AL",
		"state": "AL"
	},
	{
		"code": "DIK",
		"name": "Dickinson Municipal | Dickinson - Theodore Roosevelt Regional",
		"lat": 46.796944445,
		"long": -102.799166665,
		"city": "Dickinson, ND",
		"state": "ND"
	},
	{
		"code": "DLH",
		"name": "Duluth International",
		"lat": 46.842111108,
		"long": -92.192944444,
		"city": "Duluth, MN",
		"state": "MN"
	},
	{
		"code": "DRO",
		"name": "La Plata County | Durango La Plata County",
		"lat": 37.155092593333336,
		"long": -107.74907407333335,
		"city": "Durango, CO",
		"state": "CO"
	},
	{
		"code": "DSM",
		"name": "Des Moines Municipal | Des Moines International",
		"lat": 41.533968255714285,
		"long": -93.65964285999999,
		"city": "Des Moines, IA",
		"state": "IA"
	},
	{
		"code": "DTW",
		"name": "Detroit Metro Wayne County",
		"lat": 42.214583335,
		"long": -83.34888888500001,
		"city": "Detroit, MI",
		"state": "MI"
	},
	{
		"code": "DUT",
		"name": "Unalaska Airport",
		"lat": 53.898833334,
		"long": -166.543222222,
		"city": "Unalaska, AK",
		"state": "AK"
	},
	{
		"code": "DVL",
		"name": "Devils Lake Regional",
		"lat": 48.115166668,
		"long": -98.908833332,
		"city": "Devils Lake, ND",
		"state": "ND"
	},
	{
		"code": "EAT",
		"name": "Pangborn Memorial",
		"lat": 47.398722224,
		"long": -120.206666664,
		"city": "Wenatchee, WA",
		"state": "WA"
	},
	{
		"code": "EAU",
		"name": "Eau Claire Municipal | Chippewa Valley Regional",
		"lat": 44.864907403333326,
		"long": -91.48620370333333,
		"city": "Eau Claire, WI",
		"state": "WI"
	},
	{
		"code": "ECP",
		"name": "Northwest Florida Beaches International",
		"lat": 30.358055555,
		"long": -85.797222225,
		"city": "Panama City, FL",
		"state": "FL"
	},
	{
		"code": "EGE",
		"name": "Eagle County Regional",
		"lat": 39.642944446,
		"long": -106.92211111000002,
		"city": "Eagle, CO",
		"state": "CO"
	},
	{
		"code": "EKO",
		"name": "Elko Regional",
		"lat": 40.824777778,
		"long": -115.79116666799999,
		"city": "Elko, NV",
		"state": "NV"
	},
	{
		"code": "ELM",
		"name": "Elmira/Corning Regional",
		"lat": 42.159999998333326,
		"long": -76.89236111166666,
		"city": "Elmira/Corning, NY",
		"state": "NY"
	},
	{
		"code": "ELP",
		"name": "El Paso International",
		"lat": 31.80711111,
		"long": -106.377,
		"city": "El Paso, TX",
		"state": "TX"
	},
	{
		"code": "ERI",
		"name": "Erie International | Erie International/Tom Ridge Field",
		"lat": 42.08166666666666,
		"long": -80.17620370333334,
		"city": "Erie, PA",
		"state": "PA"
	},
	{
		"code": "ESC",
		"name": "Delta County",
		"lat": 45.721666670000005,
		"long": -87.09013888999999,
		"city": "Escanaba, MI",
		"state": "MI"
	},
	{
		"code": "EUG",
		"name": "Mahlon Sweet Field",
		"lat": 44.122638885,
		"long": -123.21472222,
		"city": "Eugene, OR",
		"state": "OR"
	},
	{
		"code": "EVV",
		"name": "Evansville Dress Regional | Evansville Regional",
		"lat": 38.03861111,
		"long": -87.53064814666668,
		"city": "Evansville, IN",
		"state": "IN"
	},
	{
		"code": "EWN",
		"name": "Craven County Regional | Coastal Carolina Regional",
		"lat": 35.0731250025,
		"long": -77.04288194749999,
		"city": "New Bern/Morehead/Beaufort, NC",
		"state": "NC"
	},
	{
		"code": "EWR",
		"name": "Newark Liberty International",
		"lat": 40.694166665,
		"long": -74.17013889,
		"city": "Newark, NJ",
		"state": "NJ"
	},
	{
		"code": "EYW",
		"name": "Key West International",
		"lat": 24.555925926666664,
		"long": -81.75972222,
		"city": "Key West, FL",
		"state": "FL"
	},
	{
		"code": "FAI",
		"name": "Fairbanks International",
		"lat": 64.81472222,
		"long": -147.859583335,
		"city": "Fairbanks, AK",
		"state": "AK"
	},
	{
		"code": "FAR",
		"name": "Hector Field | Hector International",
		"lat": 46.91722222666667,
		"long": -96.81509258999999,
		"city": "Fargo, ND",
		"state": "ND"
	},
	{
		"code": "FAT",
		"name": "Fresno Air Terminal | Fresno Yosemite International",
		"lat": 36.77638889,
		"long": -119.71813492142857,
		"city": "Fresno, CA",
		"state": "CA"
	},
	{
		"code": "FAY",
		"name": "Fayetteville Regional/Grannis Field",
		"lat": 34.99125,
		"long": -78.88027778,
		"city": "Fayetteville, NC",
		"state": "NC"
	},
	{
		"code": "FCA",
		"name": "Glacier Park International",
		"lat": 48.311666669999994,
		"long": -114.25361111000001,
		"city": "Kalispell, MT",
		"state": "MT"
	},
	{
		"code": "FLG",
		"name": "Flagstaff Pulliam",
		"lat": 35.13902778,
		"long": -111.67041667,
		"city": "Flagstaff, AZ",
		"state": "AZ"
	},
	{
		"code": "FLL",
		"name": "Fort Lauderdale-Hollywood International",
		"lat": 26.072453704999997,
		"long": -80.15162037166667,
		"city": "Fort Lauderdale, FL",
		"state": "FL"
	},
	{
		"code": "FLO",
		"name": "Florence Regional",
		"lat": 34.187083335,
		"long": -79.724166665,
		"city": "Florence, SC",
		"state": "SC"
	},
	{
		"code": "FNT",
		"name": "Bishop International",
		"lat": 42.965777781999996,
		"long": -83.743666666,
		"city": "Flint, MI",
		"state": "MI"
	},
	{
		"code": "FSD",
		"name": "Joe Foss Field",
		"lat": 43.580416665,
		"long": -96.74138888499999,
		"city": "Sioux Falls, SD",
		"state": "SD"
	},
	{
		"name": "Fort Smith Regional",
		"lat": 35.33666667,
		"long": -94.3675,
		"code": "FSM",
		"city": "Fort Smith, AR",
		"state": "AR"
	},
	{
		"code": "FWA",
		"name": "Fort Wayne International | Fort Wayne Municipal",
		"lat": 40.97833333,
		"long": -85.18986111499999,
		"city": "Fort Wayne, IN",
		"state": "IN"
	},
	{
		"code": "GCC",
		"name": "Gillette Campbell County",
		"lat": 44.35013889,
		"long": -105.53222222,
		"city": "Gillette, WY",
		"state": "WY"
	},
	{
		"code": "GCK",
		"name": "Garden City Municipal | Garden City Regional",
		"lat": 37.92824074,
		"long": -100.72796296,
		"city": "Garden City, KS",
		"state": "KS"
	},
	{
		"code": "GEG",
		"name": "Spokane International",
		"lat": 47.619583335,
		"long": -117.53402778,
		"city": "Spokane, WA",
		"state": "WA"
	},
	{
		"code": "GFK",
		"name": "Grand Forks International",
		"lat": 47.949583329999996,
		"long": -97.17625000000001,
		"city": "Grand Forks, ND",
		"state": "ND"
	},
	{
		"code": "GGG",
		"name": "East Texas Regional",
		"lat": 32.385277779999996,
		"long": -94.71333333499999,
		"city": "Longview, TX",
		"state": "TX"
	},
	{
		"code": "GJT",
		"name": "Grand Junction Regional | Walker Field",
		"lat": 39.120555555,
		"long": -108.52027778,
		"city": "Grand Junction, CO",
		"state": "CO"
	},
	{
		"code": "GNV",
		"name": "Gainesville Regional",
		"lat": 29.689861110000002,
		"long": -82.27375,
		"city": "Gainesville, FL",
		"state": "FL"
	},
	{
		"code": "GPT",
		"name": "Gulfport-Biloxi International",
		"lat": 30.406666665000003,
		"long": -89.07013889,
		"city": "Gulfport/Biloxi, MS",
		"state": "MS"
	},
	{
		"code": "GRB",
		"name": "Austin Straubel International | Green Bay Austin Straubel International",
		"lat": 44.485388888,
		"long": -88.12988888800001,
		"city": "Green Bay, WI",
		"state": "WI"
	},
	{
		"code": "GRI",
		"name": "Grand Island Air Park | Central Nebraska Regional",
		"lat": 40.96736111,
		"long": -98.308194445,
		"city": "Grand Island, NE",
		"state": "NE"
	},
	{
		"code": "GRK",
		"name": "Robert Gray AAF",
		"lat": 31.06597222,
		"long": -97.82819444500001,
		"city": "Killeen, TX",
		"state": "TX"
	},
	{
		"code": "GRR",
		"name": "Kent County | Gerald R. Ford International",
		"lat": 42.881018516666664,
		"long": -85.52370370666667,
		"city": "Grand Rapids, MI",
		"state": "MI"
	},
	{
		"code": "GSO",
		"name": "Piedmont Triad International",
		"lat": 36.096666665,
		"long": -79.94194444499999,
		"city": "Greensboro/High Point, NC",
		"state": "NC"
	},
	{
		"code": "GSP",
		"name": "Greenville-Spartanburg International | Greenville-Spartanburg",
		"lat": 34.897777780000006,
		"long": -82.21555555666667,
		"city": "Greer, SC",
		"state": "SC"
	},
	{
		"code": "GTF",
		"name": "Great Falls International",
		"lat": 47.483111111999996,
		"long": -111.369722224,
		"city": "Great Falls, MT",
		"state": "MT"
	},
	{
		"code": "GTR",
		"name": "Golden Triangle Regional",
		"lat": 33.449305554999995,
		"long": -88.59138889,
		"city": "Columbus, MS",
		"state": "MS"
	},
	{
		"code": "GUC",
		"name": "Gunnison-Crested Butte Regional",
		"lat": 38.534111110000005,
		"long": -106.93366667000001,
		"city": "Gunnison, CO",
		"state": "CO"
	},
	{
		"code": "HDN",
		"name": "Yampa Valley",
		"lat": 40.481388890000005,
		"long": -107.21888889,
		"city": "Hayden, CO",
		"state": "CO"
	},
	{
		"code": "HGR",
		"name": "Hagerstown Regional-Richard A. Henson Field",
		"lat": 39.708194445000004,
		"long": -77.728194445,
		"city": "Hagerstown, MD",
		"state": "MD"
	},
	{
		"code": "HHH",
		"name": "Hilton Head Airport",
		"lat": 32.220555555000004,
		"long": -80.690416665,
		"city": "Hilton Head, SC",
		"state": "SC"
	},
	{
		"code": "HIB",
		"name": "Chisholm/Hibbing | Range Regional",
		"lat": 47.38796296333334,
		"long": -92.83870370333334,
		"city": "Hibbing, MN",
		"state": "MN"
	},
	{
		"code": "HLN",
		"name": "Helena Regional",
		"lat": 46.606777778,
		"long": -111.982833332,
		"city": "Helena, MT",
		"state": "MT"
	},
	{
		"code": "HNL",
		"name": "Honolulu International | Daniel K Inouye International",
		"lat": 21.318111112,
		"long": -157.921166668,
		"city": "Honolulu, HI",
		"state": "HI"
	},
	{
		"code": "HOB",
		"name": "Lea County Hobbs | Lea County Regional",
		"lat": 32.687722222000005,
		"long": -103.217055552,
		"city": "Hobbs, NM",
		"state": "NM"
	},
	{
		"code": "HOU",
		"name": "William P Hobby",
		"lat": 29.64527778,
		"long": -95.27875,
		"city": "Houston, TX",
		"state": "TX"
	},
	{
		"code": "HPN",
		"name": "Westchester County",
		"lat": 41.067916665,
		"long": -73.70763889,
		"city": "White Plains, NY",
		"state": "NY"
	},
	{
		"code": "HRL",
		"name": "Valley International",
		"lat": 26.227944444000002,
		"long": -97.65433333200001,
		"city": "Harlingen/San Benito, TX",
		"state": "TX"
	},
	{
		"code": "HSV",
		"name": "Huntsville International-Carl T Jones Field",
		"lat": 34.64,
		"long": -86.77527778000001,
		"city": "Huntsville, AL",
		"state": "AL"
	},
	{
		"code": "HTS",
		"name": "Tri-State/Milton J. Ferguson Field",
		"lat": 38.367611108000006,
		"long": -82.558777778,
		"city": "Ashland, WV",
		"state": "WV"
	},
	{
		"code": "HVN",
		"name": "Tweed New Haven",
		"lat": 41.26435185333333,
		"long": -72.88731481333333,
		"city": "New Haven, CT",
		"state": "CT"
	},
	{
		"code": "HYA",
		"name": "Barnstable Municipal-Boardman/Polando Field",
		"lat": 41.667638885,
		"long": -70.28041667,
		"city": "Hyannis, MA",
		"state": "MA"
	},
	{
		"code": "HYS",
		"name": "Hays Municipal | Hays Regional",
		"lat": 38.844166665,
		"long": -99.273611115,
		"city": "Hays, KS",
		"state": "KS"
	},
	{
		"code": "IAD",
		"name": "Washington Dulles International",
		"lat": 38.944583335,
		"long": -77.45875,
		"city": "Washington, DC",
		"state": "VA"
	},
	{
		"code": "IAG",
		"name": "Niagara Falls International",
		"lat": 43.107333331999996,
		"long": -78.94588888800001,
		"city": "Niagara Falls, NY",
		"state": "NY"
	},
	{
		"code": "IAH",
		"name": "Houston Intercontinental | George Bush Intercontinental/Houston",
		"lat": 29.983703700000003,
		"long": -95.34046296333334,
		"city": "Houston, TX",
		"state": "TX"
	},
	{
		"code": "ICT",
		"name": "Wichita Mid-Continent | Wichita Dwight D Eisenhower National | Wichita Mid Continent",
		"lat": 37.65,
		"long": -97.43300000400001,
		"city": "Wichita, KS",
		"state": "KS"
	},
	{
		"code": "IDA",
		"name": "Fanning Field | Idaho Falls Regional",
		"lat": 43.51486111,
		"long": -112.067777775,
		"city": "Idaho Falls, ID",
		"state": "ID"
	},
	{
		"code": "ILM",
		"name": "Wilmington International",
		"lat": 34.270055555999996,
		"long": -77.90288889,
		"city": "Wilmington, NC",
		"state": "NC"
	},
	{
		"code": "IMT",
		"name": "Ford",
		"lat": 45.816944445000004,
		"long": -88.114305555,
		"city": "Iron Mountain/Kingsfd, MI",
		"state": "MI"
	},
	{
		"code": "IND",
		"name": "Indianapolis Muni/Weir Cook | Indianapolis International",
		"lat": 39.724305557499996,
		"long": -86.2860416675,
		"city": "Indianapolis, IN",
		"state": "IN"
	},
	{
		"code": "INL",
		"name": "Falls International | Falls International Einarson Field",
		"lat": 48.565055560000005,
		"long": -93.40261111,
		"city": "International Falls, MN",
		"state": "MN"
	},
	{
		"code": "IPT",
		"name": "Williamsport Regional",
		"lat": 41.240972222500005,
		"long": -76.925,
		"city": "Williamsport, PA",
		"state": "PA"
	},
	{
		"code": "ISN",
		"name": "Sloulin Field International",
		"lat": 48.177083335,
		"long": -103.639166665,
		"city": "Williston, ND",
		"state": "ND"
	},
	{
		"code": "ISP",
		"name": "Long Island MacArthur",
		"lat": 40.79601852,
		"long": -73.10055555666666,
		"city": "Islip, NY",
		"state": "NY"
	},
	{
		"code": "ITH",
		"name": "Ithaca Tompkins Regional",
		"lat": 42.490833335000005,
		"long": -76.458333335,
		"city": "Ithaca/Cortland, NY",
		"state": "NY"
	},
	{
		"code": "ITO",
		"name": "General Lyman Field | Hilo International",
		"lat": 19.7225,
		"long": -155.05481481666666,
		"city": "Hilo, HI",
		"state": "HI"
	},
	{
		"code": "JAC",
		"name": "Jackson Hole",
		"lat": 43.606944444999996,
		"long": -110.73736111,
		"city": "Jackson, WY",
		"state": "WY"
	},
	{
		"code": "JAN",
		"name": "Allen C Thompson Field | Jackson - Evers International | Jackson Medger Wiley Evers International | Jackson Medgar Wiley Evers International | Jackson Evers International",
		"lat": 32.310714284285716,
		"long": -90.07583333000001,
		"city": "Jackson/Vicksburg, MS",
		"state": "MS"
	},
	{
		"code": "JAX",
		"name": "Jacksonville International",
		"lat": 30.489444444999997,
		"long": -81.68777778,
		"city": "Jacksonville, FL",
		"state": "FL"
	},
	{
		"code": "JFK",
		"name": "John F. Kennedy International",
		"lat": 40.63961111,
		"long": -73.77838888800001,
		"city": "New York, NY",
		"state": "NY"
	},
	{
		"code": "JHM",
		"name": "Kapalua West Maui | Kapalua Airport",
		"lat": 20.964583335,
		"long": -156.67513889,
		"city": "Kapalua, HI",
		"state": "HI"
	},
	{
		"code": "JLN",
		"name": "Joplin Regional | Joplin Municipal",
		"lat": 37.151574073333336,
		"long": -94.49833333333333,
		"city": "Joplin, MO",
		"state": "MO"
	},
	{
		"code": "JMS",
		"name": "Jamestown Regional",
		"lat": 46.929861110000004,
		"long": -98.678194445,
		"city": "Jamestown, ND",
		"state": "ND"
	},
	{
		"code": "JNU",
		"name": "Juneau International",
		"lat": 58.35495370333333,
		"long": -134.57648147999998,
		"city": "Juneau, AK",
		"state": "AK"
	},
	{
		"code": "KOA",
		"name": "Keahole | Keahole-Kona International | Kona International Airport at Keahole | Ellison Onizuka Kona International at Keahole",
		"lat": 19.73888889,
		"long": -156.04555556,
		"city": "Kona, HI",
		"state": "HI"
	},
	{
		"code": "KTN",
		"name": "Ketchikan International",
		"lat": 55.35625,
		"long": -131.71388889,
		"city": "Ketchikan, AK",
		"state": "AK"
	},
	{
		"code": "LAN",
		"name": "Capital City | Capital Region International",
		"lat": 42.77898148333333,
		"long": -84.58759259,
		"city": "Lansing, MI",
		"state": "MI"
	},
	{
		"code": "LAR",
		"name": "General Brees Field | Laramie Regional",
		"lat": 41.312777775,
		"long": -105.67402777999999,
		"city": "Laramie, WY",
		"state": "WY"
	},
	{
		"code": "LAS",
		"name": "McCarran International",
		"lat": 36.07990740666666,
		"long": -115.15444444333333,
		"city": "Las Vegas, NV",
		"state": "NV"
	},
	{
		"code": "LAW",
		"name": "Lawton-Fort Sill Regional",
		"lat": 34.56875,
		"long": -98.41638889000001,
		"city": "Lawton/Fort Sill, OK",
		"state": "OK"
	},
	{
		"code": "LAX",
		"name": "Los Angeles International",
		"lat": 33.9425347225,
		"long": -118.40781250124999,
		"city": "Los Angeles, CA",
		"state": "CA"
	},
	{
		"code": "LBB",
		"name": "Lubbock Regional | Lubbock International | Lubbock Preston Smith International",
		"lat": 33.66341269714286,
		"long": -101.82198412857143,
		"city": "Lubbock, TX",
		"state": "TX"
	},
	{
		"code": "LBE",
		"name": "Latrobe Airport | Westmoreland/Latrobe | Arnold Palmer Regional",
		"lat": 40.274722223333335,
		"long": -79.40657407666667,
		"city": "Latrobe, PA",
		"state": "PA"
	},
	{
		"code": "LBF",
		"name": "North Platte Regional Airport Lee Bird Field",
		"lat": 41.12722221999999,
		"long": -100.69013889,
		"city": "North Platte, NE",
		"state": "NE"
	},
	{
		"code": "LBL",
		"name": "Liberal Municipal | Liberal Mid-America Regional",
		"lat": 37.044111112,
		"long": -100.96,
		"city": "Liberal, KS",
		"state": "KS"
	},
	{
		"code": "LCH",
		"name": "Lake Charles Regional",
		"lat": 30.128796296666664,
		"long": -93.22564815,
		"city": "Lake Charles, LA",
		"state": "LA"
	},
	{
		"code": "LCK",
		"name": "Lockbourne AFB | Rickenbacker International",
		"lat": 39.81388889,
		"long": -82.92925926,
		"city": "Columbus, OH",
		"state": "OH"
	},
	{
		"code": "LEX",
		"name": "Blue Grass",
		"lat": 38.037777776666665,
		"long": -84.60537036999999,
		"city": "Lexington, KY",
		"state": "KY"
	},
	{
		"code": "LFT",
		"name": "Lafayette Regional | Lafayette Regional Paul Fournet Field",
		"lat": 30.205046296666666,
		"long": -91.98763889000001,
		"city": "Lafayette, LA",
		"state": "LA"
	},
	{
		"code": "LGA",
		"name": "LaGuardia | La Guardia",
		"lat": 40.777777775,
		"long": -73.87333333250001,
		"city": "New York, NY",
		"state": "NY"
	},
	{
		"code": "LGB",
		"name": "Long Beach Daugherty Field | Long Beach Airport",
		"lat": 33.81773809714286,
		"long": -118.15150793714285,
		"city": "Long Beach, CA",
		"state": "CA"
	},
	{
		"code": "LIH",
		"name": "Lihue Airport",
		"lat": 21.97763889,
		"long": -159.34236111,
		"city": "Lihue, HI",
		"state": "HI"
	},
	{
		"code": "LIT",
		"name": "Adams Field | Bill and Hillary Clinton Nat Adams Field",
		"lat": 34.72930555333334,
		"long": -92.22634259,
		"city": "Little Rock, AR",
		"state": "AR"
	},
	{
		"code": "LNK",
		"name": "Lincoln Airport",
		"lat": 40.85083333,
		"long": -96.75902778,
		"city": "Lincoln, NE",
		"state": "NE"
	},
	{
		"code": "LNY",
		"name": "Lanai Airport",
		"lat": 20.78513889,
		"long": -156.950416665,
		"city": "Lanai, HI",
		"state": "HI"
	},
	{
		"code": "LRD",
		"name": "Laredo AFB | Laredo International",
		"lat": 27.54425926,
		"long": -99.46148148333333,
		"city": "Laredo, TX",
		"state": "TX"
	},
	{
		"code": "LSE",
		"name": "La Crosse Municipal | La Crosse Regional",
		"lat": 43.87877777999999,
		"long": -91.25661111400001,
		"city": "La Crosse, WI",
		"state": "WI"
	},
	{
		"code": "LWB",
		"name": "Greenbrier Valley",
		"lat": 37.859027775,
		"long": -80.39902777500001,
		"city": "Lewisburg, WV",
		"state": "WV"
	},
	{
		"code": "LWS",
		"name": "Lewiston Nez Perce County",
		"lat": 46.37458333,
		"long": -117.01486111,
		"city": "Lewiston, ID",
		"state": "ID"
	},
	{
		"code": "LYH",
		"name": "Lynchburg Regional/Preston Glenn Field",
		"lat": 37.326805555,
		"long": -79.20111111,
		"city": "Lynchburg, VA",
		"state": "VA"
	},
	{
		"code": "MAF",
		"name": "Midland Regional Air Trml | Midland International | Midland International Air and Space Port",
		"lat": 31.942166666,
		"long": -102.20183333000003,
		"city": "Midland/Odessa, TX",
		"state": "TX"
	},
	{
		"code": "MBS",
		"name": "Tri City | MBS International",
		"lat": 43.532129633333334,
		"long": -84.08101852,
		"city": "Saginaw/Bay City/Midland, MI",
		"state": "MI"
	},
	{
		"name": "Kansas City International",
		"lat": 39.2975,
		"long": -94.71388889,
		"code": "MCI",
		"city": "Kansas City, MO",
		"state": "MO"
	},
	{
		"code": "MCO",
		"name": "Orlando International",
		"lat": 28.430555554999998,
		"long": -81.316805555,
		"city": "Orlando, FL",
		"state": "FL"
	},
	{
		"code": "MDT",
		"name": "Harrisburg International",
		"lat": 40.19305556,
		"long": -76.76236111,
		"city": "Harrisburg, PA",
		"state": "PA"
	},
	{
		"code": "MDW",
		"name": "Chicago Midway International",
		"lat": 41.785416665,
		"long": -87.75222222,
		"city": "Chicago, IL",
		"state": "IL"
	},
	{
		"code": "MEI",
		"name": "Key Field",
		"lat": 32.334861110000006,
		"long": -88.750555555,
		"city": "Meridian, MS",
		"state": "MS"
	},
	{
		"code": "MEM",
		"name": "Memphis International",
		"lat": 35.04611111,
		"long": -89.97763889000001,
		"city": "Memphis, TN",
		"state": "TN"
	},
	{
		"code": "MFE",
		"name": "McAllen Miller International",
		"lat": 26.176388885,
		"long": -98.239166665,
		"city": "Mission/McAllen/Edinburg, TX",
		"state": "TX"
	},
	{
		"code": "MFR",
		"name": "Medford Jackson County | Rogue Valley International - Medford",
		"lat": 42.37379629666666,
		"long": -122.87268518333333,
		"city": "Medford, OR",
		"state": "OR"
	},
	{
		"code": "MGM",
		"name": "Dannelly Field | Montgomery Regional",
		"lat": 32.30027778,
		"long": -86.3925,
		"city": "Montgomery, AL",
		"state": "AL"
	},
	{
		"code": "MHK",
		"name": "Manhattan Regional",
		"lat": 39.141666665,
		"long": -96.67027777999999,
		"city": "Manhattan/Ft. Riley, KS",
		"state": "KS"
	},
	{
		"code": "MHT",
		"name": "Grenier Field/Manchester Municipal | Manchester Airport | Manchester-Boston Regional",
		"lat": 42.9369444425,
		"long": -71.438125,
		"city": "Manchester, NH",
		"state": "NH"
	},
	{
		"code": "MIA",
		"name": "Miami International",
		"lat": 25.793425926666668,
		"long": -80.28740740666666,
		"city": "Miami, FL",
		"state": "FL"
	},
	{
		"code": "MKE",
		"name": "General Mitchell Field | General Mitchell International",
		"lat": 42.94797618857143,
		"long": -87.89690476142856,
		"city": "Milwaukee, WI",
		"state": "WI"
	},
	{
		"code": "MKG",
		"name": "Muskegon County",
		"lat": 43.16907407666667,
		"long": -86.23685185333333,
		"city": "Muskegon, MI",
		"state": "MI"
	},
	{
		"code": "MKK",
		"name": "Molokai",
		"lat": 21.15277778,
		"long": -157.098194445,
		"city": "Hoolehua, HI",
		"state": "HI"
	},
	{
		"code": "MLB",
		"name": "Melbourne Regional | Melbourne International",
		"lat": 28.10259259333333,
		"long": -80.6437963,
		"city": "Melbourne, FL",
		"state": "FL"
	},
	{
		"code": "MLI",
		"name": "Quad City International",
		"lat": 41.448333334,
		"long": -90.507666668,
		"city": "Moline, IL",
		"state": "IL"
	},
	{
		"code": "MLU",
		"name": "Monroe Regional",
		"lat": 32.51097222,
		"long": -92.038333335,
		"city": "Monroe, LA",
		"state": "LA"
	},
	{
		"name": "Mammoth Lakes Airport",
		"lat": 37.63111111,
		"long": -118.85138889,
		"code": "MMH",
		"city": "Mammoth Lakes, CA",
		"state": "CA"
	},
	{
		"code": "MOB",
		"name": "Mobile Regional",
		"lat": 30.68986111,
		"long": -88.241805555,
		"city": "Mobile, AL",
		"state": "AL"
	},
	{
		"code": "MOT",
		"name": "Minot International",
		"lat": 48.258611110000004,
		"long": -101.279444445,
		"city": "Minot, ND",
		"state": "ND"
	},
	{
		"code": "MQT",
		"name": "Marquette County | Sawyer International",
		"lat": 46.35212963,
		"long": -87.39564815,
		"city": "Marquette, MI",
		"state": "MI"
	},
	{
		"code": "MRY",
		"name": "Monterey Peninsula | Monterey Regional",
		"lat": 36.587166664,
		"long": -121.84405555999999,
		"city": "Monterey, CA",
		"state": "CA"
	},
	{
		"code": "MSN",
		"name": "Truax Field | Dane County Regional-Truax Field",
		"lat": 43.14097222,
		"long": -89.33722222,
		"city": "Madison, WI",
		"state": "WI"
	},
	{
		"code": "MSO",
		"name": "Missoula International",
		"lat": 46.915972225000004,
		"long": -114.08902778000001,
		"city": "Missoula, MT",
		"state": "MT"
	},
	{
		"code": "MSP",
		"name": "Minneapolis-St Paul International",
		"lat": 44.884027775,
		"long": -93.219722225,
		"city": "Minneapolis, MN",
		"state": "MN"
	},
	{
		"code": "MSY",
		"name": "Louis Armstrong New Orleans International",
		"lat": 29.992888885999996,
		"long": -90.25716667,
		"city": "New Orleans, LA",
		"state": "LA"
	},
	{
		"code": "MTJ",
		"name": "Montrose Regional",
		"lat": 38.50513889,
		"long": -107.894444445,
		"city": "Montrose/Delta, CO",
		"state": "CO"
	},
	{
		"code": "MVY",
		"name": "Martha's Vineyard Airport",
		"lat": 41.393055555000004,
		"long": -70.61527778,
		"city": "Martha's Vineyard, MA",
		"state": "MA"
	},
	{
		"code": "MYR",
		"name": "Myrtle Beach International",
		"lat": 33.679444445,
		"long": -78.92902777500001,
		"city": "Myrtle Beach, SC",
		"state": "SC"
	},
	{
		"code": "OAJ",
		"name": "Albert J Ellis",
		"lat": 34.829722225,
		"long": -77.611944445,
		"city": "Jacksonville/Camp Lejeune, NC",
		"state": "NC"
	},
	{
		"code": "OAK",
		"name": "Metropolitan Oakland International",
		"lat": 37.72114583374999,
		"long": -122.22114583250001,
		"city": "Oakland, CA",
		"state": "CA"
	},
	{
		"code": "OGD",
		"name": "Ogden-Hinckley",
		"lat": 41.195648150000004,
		"long": -112.01203703666665,
		"city": "Ogden, UT",
		"state": "UT"
	},
	{
		"code": "OGG",
		"name": "Kahului Airport",
		"lat": 20.899583335000003,
		"long": -156.432083335,
		"city": "Kahului, HI",
		"state": "HI"
	},
	{
		"code": "OGS",
		"name": "Ogdensburg International",
		"lat": 44.681999997999995,
		"long": -75.464722222,
		"city": "Ogdensburg, NY",
		"state": "NY"
	},
	{
		"code": "OKC",
		"name": "Will Rogers World",
		"lat": 35.392777779999996,
		"long": -97.60101852000001,
		"city": "Oklahoma City, OK",
		"state": "OK"
	},
	{
		"code": "OMA",
		"name": "Eppley Airfield",
		"lat": 41.302499999999995,
		"long": -95.89375000000001,
		"city": "Omaha, NE",
		"state": "NE"
	},
	{
		"code": "OME",
		"name": "Nome Airport",
		"lat": 64.512166666,
		"long": -165.44422222199998,
		"city": "Nome, AK",
		"state": "AK"
	},
	{
		"name": "Ontario International",
		"lat": 34.05611111,
		"long": -117.60111111,
		"code": "ONT",
		"city": "Ontario, CA",
		"state": "CA"
	},
	{
		"code": "ORD",
		"name": "Chicago O'Hare International",
		"lat": 41.97853174571429,
		"long": -87.90710317714286,
		"city": "Chicago, IL",
		"state": "IL"
	},
	{
		"code": "ORF",
		"name": "Norfolk International",
		"lat": 36.895277775,
		"long": -76.20125,
		"city": "Norfolk, VA",
		"state": "VA"
	},
	{
		"code": "ORH",
		"name": "Worcester Regional",
		"lat": 42.267611110000004,
		"long": -71.87544444400001,
		"city": "Worcester, MA",
		"state": "MA"
	},
	{
		"code": "OTH",
		"name": "North Bend Municipal | Southwest Oregon Regional",
		"lat": 43.418240739999995,
		"long": -124.24231481333334,
		"city": "North Bend/Coos Bay, OR",
		"state": "OR"
	},
	{
		"code": "OTZ",
		"name": "Ralph Wien Memorial",
		"lat": 66.88538888800001,
		"long": -162.599833334,
		"city": "Kotzebue, AK",
		"state": "AK"
	},
	{
		"code": "OWB",
		"name": "Owensboro Daviess County | Owensboro Daviess County Regional",
		"lat": 37.739277777999995,
		"long": -87.166722218,
		"city": "Owensboro, KY",
		"state": "KY"
	},
	{
		"code": "PAH",
		"name": "Barkley Regional",
		"lat": 37.060694444999996,
		"long": -88.77277778,
		"city": "Paducah, KY",
		"state": "KY"
	},
	{
		"name": "Plattsburgh International",
		"lat": 44.65083333,
		"long": -73.46805556,
		"code": "PBG",
		"city": "Plattsburgh, NY",
		"state": "NY"
	},
	{
		"code": "PBI",
		"name": "Palm Beach International",
		"lat": 26.68263889,
		"long": -80.094861115,
		"city": "West Palm Beach/Palm Beach, FL",
		"state": "FL"
	},
	{
		"code": "PDX",
		"name": "Portland International",
		"lat": 45.58888889,
		"long": -122.59597222,
		"city": "Portland, OR",
		"state": "OR"
	},
	{
		"code": "PGD",
		"name": "Charlotte County | Punta Gorda Airport",
		"lat": 26.91902778,
		"long": -81.99111110999999,
		"city": "Punta Gorda, FL",
		"state": "FL"
	},
	{
		"code": "PGV",
		"name": "Pitt Greenville",
		"lat": 35.635000002,
		"long": -77.384833336,
		"city": "Greenville, NC",
		"state": "NC"
	},
	{
		"code": "PHF",
		"name": "Patrick Henry International | Newport News/Williamsburg International",
		"lat": 37.13175926,
		"long": -76.49324073999999,
		"city": "Newport News/Williamsburg, VA",
		"state": "VA"
	},
	{
		"code": "PHL",
		"name": "Philadelphia International",
		"lat": 39.871277776,
		"long": -75.242277778,
		"city": "Philadelphia, PA",
		"state": "PA"
	},
	{
		"code": "PHX",
		"name": "Phoenix Sky Harbor International",
		"lat": 33.435138890000005,
		"long": -112.010555555,
		"city": "Phoenix, AZ",
		"state": "AZ"
	},
	{
		"code": "PIA",
		"name": "Greater Peoria | General Downing - Peoria International",
		"lat": 40.662314816666665,
		"long": -89.68925925666667,
		"city": "Peoria, IL",
		"state": "IL"
	},
	{
		"code": "PIB",
		"name": "Hattiesburg-Laurel Regional",
		"lat": 31.46736111,
		"long": -89.336805555,
		"city": "Hattiesburg/Laurel, MS",
		"state": "MS"
	},
	{
		"code": "PIE",
		"name": "St. Petersburg-Clearwater International | St Pete Clearwater International | St Petersburg Clearwater International",
		"lat": 27.909074073333333,
		"long": -82.68680555666667,
		"city": "St. Petersburg, FL",
		"state": "FL"
	},
	{
		"code": "PIH",
		"name": "Pocatello Regional",
		"lat": 42.911527774999996,
		"long": -112.59513888500001,
		"city": "Pocatello, ID",
		"state": "ID"
	},
	{
		"code": "PIT",
		"name": "Pittsburgh International",
		"lat": 40.49402778,
		"long": -80.234305555,
		"city": "Pittsburgh, PA",
		"state": "PA"
	},
	{
		"code": "PLN",
		"name": "Pellston Regional Airport of Emmet County",
		"lat": 45.57083333,
		"long": -84.79472222499999,
		"city": "Pellston, MI",
		"state": "MI"
	},
	{
		"code": "PNS",
		"name": "Pensacola Regional | Pensacola Gulf Coast Regional | Pensacola International",
		"lat": 30.47333333,
		"long": -87.18694444666669,
		"city": "Pensacola, FL",
		"state": "FL"
	},
	{
		"code": "PSC",
		"name": "Tri Cities",
		"lat": 46.264305555,
		"long": -119.116944445,
		"city": "Pasco/Kennewick/Richland, WA",
		"state": "WA"
	},
	{
		"code": "PSG",
		"name": "Petersburg James A Johnson",
		"lat": 56.802055558000006,
		"long": -132.945055556,
		"city": "Petersburg, AK",
		"state": "AK"
	},
	{
		"code": "PSM",
		"name": "Portsmouth Pease International | Portsmouth International at Pease",
		"lat": 43.07791667,
		"long": -70.82333333,
		"city": "Portsmouth, NH",
		"state": "NH"
	},
	{
		"code": "PSP",
		"name": "Palm Springs International",
		"lat": 33.8290277775,
		"long": -116.50611111250001,
		"city": "Palm Springs, CA",
		"state": "CA"
	},
	{
		"code": "PUB",
		"name": "Pueblo Memorial",
		"lat": 38.290222224,
		"long": -104.49700000200001,
		"city": "Pueblo, CO",
		"state": "CO"
	},
	{
		"code": "PUW",
		"name": "Pullman Moscow Regional",
		"lat": 46.74342592666667,
		"long": -117.10870370333335,
		"city": "Pullman, WA",
		"state": "WA"
	},
	{
		"code": "PVD",
		"name": "Theodore Francis Green State",
		"lat": 41.72411111,
		"long": -71.427666666,
		"city": "Providence, RI",
		"state": "RI"
	},
	{
		"code": "PVU",
		"name": "Provo Municipal",
		"lat": 40.218611115,
		"long": -111.722777775,
		"city": "Provo, UT",
		"state": "UT"
	},
	{
		"code": "PWM",
		"name": "Portland International Jetport",
		"lat": 43.64555555599999,
		"long": -70.307833334,
		"city": "Portland, ME",
		"state": "ME"
	},
	{
		"code": "RAP",
		"name": "Rapid City Regional",
		"lat": 44.04527778,
		"long": -103.05708333,
		"city": "Rapid City, SD",
		"state": "SD"
	},
	{
		"code": "RDD",
		"name": "Redding Municipal",
		"lat": 40.508611110000004,
		"long": -122.29277777499999,
		"city": "Redding, CA",
		"state": "CA"
	},
	{
		"code": "RDM",
		"name": "Roberts Field",
		"lat": 44.254305555,
		"long": -121.150694445,
		"city": "Bend/Redmond, OR",
		"state": "OR"
	},
	{
		"code": "RDU",
		"name": "Raleigh-Durham International",
		"lat": 35.87652778,
		"long": -78.78472221999999,
		"city": "Raleigh/Durham, NC",
		"state": "NC"
	},
	{
		"code": "RFD",
		"name": "Chicago/Rockford International",
		"lat": 42.19625,
		"long": -89.09486111000001,
		"city": "Rockford, IL",
		"state": "IL"
	},
	{
		"code": "RHI",
		"name": "Rhinelander/Oneida County",
		"lat": 45.63111111,
		"long": -89.46208333499999,
		"city": "Rhinelander, WI",
		"state": "WI"
	},
	{
		"name": "Richmond International",
		"lat": 37.50527778,
		"long": -77.31972222,
		"code": "RIC",
		"city": "Richmond, VA",
		"state": "VA"
	},
	{
		"code": "RKS",
		"name": "Rock Springs Sweetwater County | Southwest Wyoming Regional",
		"lat": 41.59490741,
		"long": -109.06546296333333,
		"city": "Rock Springs, WY",
		"state": "WY"
	},
	{
		"code": "RNO",
		"name": "Reno/Tahoe International",
		"lat": 39.498472225,
		"long": -119.76777777999999,
		"city": "Reno, NV",
		"state": "NV"
	},
	{
		"code": "ROA",
		"name": "Roanoke Regional/Woodrum Field | Roanoke Blacksburg Regional Woodrum Field | Roanoke Regional Woodrum Field",
		"lat": 37.325388892,
		"long": -79.97572222599999,
		"city": "Roanoke, VA",
		"state": "VA"
	},
	{
		"code": "ROC",
		"name": "Rochester Monroe County | Greater Rochester International",
		"lat": 43.11981481666667,
		"long": -77.67175925666668,
		"city": "Rochester, NY",
		"state": "NY"
	},
	{
		"code": "ROW",
		"name": "Roswell International Air Center",
		"lat": 33.300833335,
		"long": -104.53,
		"city": "Roswell, NM",
		"state": "NM"
	},
	{
		"code": "RST",
		"name": "Rochester Municipal | Rochester International",
		"lat": 43.909629630000005,
		"long": -92.49759259333332,
		"city": "Rochester, MN",
		"state": "MN"
	},
	{
		"code": "RSW",
		"name": "Southwest Florida International",
		"lat": 26.53611111,
		"long": -81.75513889,
		"city": "Fort Myers, FL",
		"state": "FL"
	},
	{
		"code": "SAF",
		"name": "Santa Fe Municipal",
		"lat": 35.617361110000004,
		"long": -106.08888888499999,
		"city": "Santa Fe, NM",
		"state": "NM"
	},
	{
		"code": "SAN",
		"name": "San Diego International Lindbergh Fl | San Diego International",
		"lat": 32.73333333333333,
		"long": -117.18787037,
		"city": "San Diego, CA",
		"state": "CA"
	},
	{
		"code": "SAT",
		"name": "San Antonio International",
		"lat": 29.533666666,
		"long": -98.469444444,
		"city": "San Antonio, TX",
		"state": "TX"
	},
	{
		"code": "SAV",
		"name": "Savannah/Hilton Head International",
		"lat": 32.1275,
		"long": -81.20236111,
		"city": "Savannah, GA",
		"state": "GA"
	},
	{
		"code": "SBA",
		"name": "Santa Barbara Municipal",
		"lat": 34.426944445000004,
		"long": -119.84041666499999,
		"city": "Santa Barbara, CA",
		"state": "CA"
	},
	{
		"code": "SBN",
		"name": "Michiana Regional | South Bend Regional | South Bend Airport | South Bend International",
		"lat": 41.70694444125001,
		"long": -86.316493055,
		"city": "South Bend, IN",
		"state": "IN"
	},
	{
		"code": "SBP",
		"name": "San Luis Obispo County Regional | San Luis County Regional",
		"lat": 35.236944445,
		"long": -120.640833335,
		"city": "San Luis Obispo, CA",
		"state": "CA"
	},
	{
		"code": "SBY",
		"name": "Salisbury-Ocean City/Wicomico Regional",
		"lat": 38.340055558,
		"long": -75.50988888799999,
		"city": "Salisbury, MD",
		"state": "MD"
	},
	{
		"code": "SCC",
		"name": "Deadhorse Airport",
		"lat": 70.19486111,
		"long": -148.46611111250002,
		"city": "Deadhorse, AK",
		"state": "AK"
	},
	{
		"code": "SCE",
		"name": "State College Air Depot | University Park",
		"lat": 40.833833334000005,
		"long": -77.85472222199999,
		"city": "State College, PA",
		"state": "PA"
	},
	{
		"code": "SCK",
		"name": "Stockton Metropolitan",
		"lat": 37.89435185,
		"long": -121.23870370333334,
		"city": "Stockton, CA",
		"state": "CA"
	},
	{
		"code": "SDF",
		"name": "Standiford Field | Louisville International-Standiford Field | Louisville Muhammad Ali International",
		"lat": 38.176944445000004,
		"long": -85.7375,
		"city": "Louisville, KY",
		"state": "KY"
	},
	{
		"code": "SEA",
		"name": "Seattle International | Seattle/Tacoma International",
		"lat": 47.44879629666667,
		"long": -122.30842593,
		"city": "Seattle, WA",
		"state": "WA"
	},
	{
		"code": "SFB",
		"name": "Sanford NAS | Orlando Sanford International",
		"lat": 28.77674603142857,
		"long": -81.23626984285714,
		"city": "Sanford, FL",
		"state": "FL"
	},
	{
		"code": "SFO",
		"name": "San Francisco International",
		"lat": 37.61888889,
		"long": -122.37527778,
		"city": "San Francisco, CA",
		"state": "CA"
	},
	{
		"code": "SGF",
		"name": "Springfield-Branson National",
		"lat": 37.24277778,
		"long": -93.386805555,
		"city": "Springfield, MO",
		"state": "MO"
	},
	{
		"code": "SGU",
		"name": "St George Municipal | St George Regional",
		"lat": 37.047722224,
		"long": -113.526666668,
		"city": "St. George, UT",
		"state": "UT"
	},
	{
		"code": "SHD",
		"name": "Shenandoah Valley Regional",
		"lat": 38.26388889,
		"long": -78.89652778,
		"city": "Staunton, VA",
		"state": "VA"
	},
	{
		"code": "SHV",
		"name": "Shreveport Regional",
		"lat": 32.446805555,
		"long": -93.82555556,
		"city": "Shreveport, LA",
		"state": "LA"
	},
	{
		"code": "SIT",
		"name": "Sitka Rocky Gutierrez",
		"lat": 57.047388886,
		"long": -135.361444446,
		"city": "Sitka, AK",
		"state": "AK"
	},
	{
		"code": "SJC",
		"name": "San Jose International | Norman Y. Mineta San Jose International",
		"lat": 37.36287037333334,
		"long": -121.93277778,
		"city": "San Jose, CA",
		"state": "CA"
	},
	{
		"code": "SJT",
		"name": "San Angelo Regional/Mathis Field",
		"lat": 31.35875,
		"long": -100.495416665,
		"city": "San Angelo, TX",
		"state": "TX"
	},
	{
		"code": "SLC",
		"name": "Salt Lake City International",
		"lat": 40.78648148,
		"long": -111.97120370333334,
		"city": "Salt Lake City, UT",
		"state": "UT"
	},
	{
		"code": "SLN",
		"name": "Salina Municipal | Salina Regional",
		"lat": 38.790694445,
		"long": -97.65226851666667,
		"city": "Salina, KS",
		"state": "KS"
	},
	{
		"code": "SMF",
		"name": "Sacramento International",
		"lat": 38.69555556,
		"long": -121.590277775,
		"city": "Sacramento, CA",
		"state": "CA"
	},
	{
		"code": "SMX",
		"name": "Santa Maria Public/Capt. G. Allan Hancock Field",
		"lat": 34.900555556,
		"long": -120.45777777999999,
		"city": "Santa Maria, CA",
		"state": "CA"
	},
	{
		"code": "SNA",
		"name": "Orange County | John Wayne Airport-Orange County",
		"lat": 33.67555556,
		"long": -117.86749999666667,
		"city": "Santa Ana, CA",
		"state": "CA"
	},
	{
		"code": "SPI",
		"name": "Capital | Abraham Lincoln Capital",
		"lat": 39.84416667,
		"long": -89.67861111333333,
		"city": "Springfield, IL",
		"state": "IL"
	},
	{
		"code": "SPS",
		"name": "Sheppard AFB/Wichita Falls Municipal",
		"lat": 33.98861111,
		"long": -98.49194444,
		"city": "Wichita Falls, TX",
		"state": "TX"
	},
	{
		"code": "SRQ",
		"name": "Sarasota/Bradenton Airport | Sarasota/Bradenton International",
		"lat": 27.394444446666665,
		"long": -82.55425926,
		"city": "Sarasota/Bradenton, FL",
		"state": "FL"
	},
	{
		"code": "STC",
		"name": "St. Cloud Regional",
		"lat": 45.54601852,
		"long": -94.05925925666666,
		"city": "St. Cloud, MN",
		"state": "MN"
	},
	{
		"code": "STL",
		"name": "Lambert-St. Louis International | St Louis Lambert International | Lambert St Louis International",
		"lat": 38.74824074,
		"long": -90.36740740666669,
		"city": "St. Louis, MO",
		"state": "MO"
	},
	{
		"code": "STS",
		"name": "Charles M. Schulz - Sonoma County",
		"lat": 38.509277778,
		"long": -122.81255555800001,
		"city": "Santa Rosa, CA",
		"state": "CA"
	},
	{
		"code": "SUN",
		"name": "Friedman Memorial",
		"lat": 43.50402778,
		"long": -114.301944445,
		"city": "Sun Valley/Hailey/Ketchum, ID",
		"state": "ID"
	},
	{
		"code": "SUX",
		"name": "Sioux City Gateway | Sioux Gateway/Col. Bud Day Field | Sioux Gateway Brig Gen Bud Day Field",
		"lat": 42.40222222,
		"long": -96.384305555,
		"city": "Sioux City, IA",
		"state": "IA"
	},
	{
		"code": "SWF",
		"name": "Stewart International | New York Stewart International",
		"lat": 41.504722223333324,
		"long": -74.10222222,
		"city": "Newburgh/Poughkeepsie, NY",
		"state": "NY"
	},
	{
		"code": "SWO",
		"name": "Searcy Field | Stillwater Regional",
		"lat": 36.16013889,
		"long": -97.085694445,
		"city": "Stillwater, OK",
		"state": "OK"
	},
	{
		"code": "SYR",
		"name": "Syracuse Hancock International",
		"lat": 43.110833335,
		"long": -76.10444444500001,
		"city": "Syracuse, NY",
		"state": "NY"
	},
	{
		"code": "TLH",
		"name": "Tallahassee Regional | Tallahassee International",
		"lat": 30.397175928333336,
		"long": -84.35083333166666,
		"city": "Tallahassee, FL",
		"state": "FL"
	},
	{
		"code": "TOL",
		"name": "Toledo Express",
		"lat": 41.588888885,
		"long": -83.804305555,
		"city": "Toledo, OH",
		"state": "OH"
	},
	{
		"code": "TPA",
		"name": "Tampa International",
		"lat": 27.974305559999998,
		"long": -82.534305555,
		"city": "Tampa, FL",
		"state": "FL"
	},
	{
		"code": "TRI",
		"name": "Tri-Cities Regional TN/VA | Tri Cities | Tri Cities Regional Tn Va",
		"lat": 36.475444446,
		"long": -82.40727777800001,
		"city": "Bristol/Johnson City/Kingsport, TN",
		"state": "TN"
	},
	{
		"code": "TTN",
		"name": "Mercer County | Trenton Mercer",
		"lat": 40.277361115,
		"long": -74.812916665,
		"city": "Trenton, NJ",
		"state": "NJ"
	},
	{
		"code": "TUL",
		"name": "Tulsa International",
		"lat": 36.198055554999996,
		"long": -95.88888889,
		"city": "Tulsa, OK",
		"state": "OK"
	},
	{
		"code": "TUS",
		"name": "Tucson International",
		"lat": 32.116805555,
		"long": -110.941805555,
		"city": "Tucson, AZ",
		"state": "AZ"
	},
	{
		"code": "TVC",
		"name": "Cherry Capital",
		"lat": 44.741333336000004,
		"long": -85.58277777600001,
		"city": "Traverse City, MI",
		"state": "MI"
	},
	{
		"code": "TWF",
		"name": "Joslin Field - Magic Valley Regional",
		"lat": 42.48194444,
		"long": -114.48722222500001,
		"city": "Twin Falls, ID",
		"state": "ID"
	},
	{
		"code": "TXK",
		"name": "Texarkana Muni/Webb Field | Texarkana Regional-Webb Field",
		"lat": 33.45546296333333,
		"long": -93.98981481666668,
		"city": "Texarkana, AR",
		"state": "AR"
	},
	{
		"code": "TYR",
		"name": "Tyler Pounds Regional",
		"lat": 32.35407407500001,
		"long": -95.402083335,
		"city": "Tyler, TX",
		"state": "TX"
	},
	{
		"code": "TYS",
		"name": "McGhee Tyson",
		"lat": 35.810555552,
		"long": -83.99427778,
		"city": "Knoxville, TN",
		"state": "TN"
	},
	{
		"code": "UIN",
		"name": "Quincy Regional-Baldwin Field",
		"lat": 39.94316667,
		"long": -91.19499999599999,
		"city": "Quincy, IL",
		"state": "IL"
	},
	{
		"code": "USA",
		"name": "Concord Padgett Regional | CONCORD REGIONAL",
		"lat": 35.38777778,
		"long": -80.70916667,
		"city": "CONCORD, NC",
		"state": "NC"
	},
	{
		"code": "VLD",
		"name": "Valdosta Regional",
		"lat": 30.781805555,
		"long": -83.276527775,
		"city": "Valdosta, GA",
		"state": "GA"
	},
	{
		"code": "VPS",
		"name": "Eglin AFB | Eglin AFB Destin Fort Walton Beach | Northwest Florida Regional",
		"lat": 30.48333333,
		"long": -86.52527778,
		"city": "Valparaiso, FL",
		"state": "FL"
	},
	{
		"code": "WRG",
		"name": "Wrangell Airport",
		"lat": 56.48444444,
		"long": -132.368194445,
		"city": "Wrangell, AK",
		"state": "AK"
	},
	{
		"code": "WYS",
		"name": "Yellowstone",
		"lat": 44.6875,
		"long": -111.11125,
		"city": "West Yellowstone, MT",
		"state": "MT"
	},
	{
		"code": "XNA",
		"name": "Northwest Arkansas Regional",
		"lat": 36.281805555,
		"long": -94.30736110999999,
		"city": "Fayetteville, AR",
		"state": "AR"
	},
	{
		"code": "YAK",
		"name": "Yakutat Airport",
		"lat": 59.506249999999994,
		"long": -139.66,
		"city": "Yakutat, AK",
		"state": "AK"
	},
	{
		"code": "YKM",
		"name": "Yakima Air Terminal/McAllister Field",
		"lat": 46.567499999999995,
		"long": -120.54097222499999,
		"city": "Yakima, WA",
		"state": "WA"
	},
	{
		"code": "YUM",
		"name": "Yuma MCAS/Yuma International",
		"lat": 32.65666667,
		"long": -114.60597222,
		"city": "Yuma, AZ",
		"state": "AZ"
	}
]