[{"code":"ADK","name":"Adak NS | Adak","lat":51.880694446666666,"long":-176.64462962833332,"city":"Adak Island, AK","state":"AK"},{"code":"ADQ","name":"Kodiak Airport","lat":57.74986111,"long":-152.49388889,"city":"Kodiak, AK","state":"AK"},{"code":"ANC","name":"Anchorage International | Ted Stevens Anchorage International","lat":61.173472221666664,"long":-149.99504629833334,"city":"Anchorage, AK","state":"AK"},{"code":"BET","name":"Bethel Airport","lat":60.781527775,"long":-161.83430555500001,"city":"Bethel, AK","state":"AK"},{"code":"BRW","name":"Wiley Post/Will Rogers Memorial","lat":71.285,"long":-156.76811110999998,"city":"Barrow, AK","state":"AK"},{"code":"CDV","name":"Cordova Mile 13 | Mile 13 Field | Merle K Mudhole Smith","lat":60.49259259666667,"long":-145.4725,"city":"Cordova, AK","state":"AK"},{"code":"DUT","name":"Unalaska Airport","lat":53.898833334,"long":-166.543222222,"city":"Unalaska, AK","state":"AK"},{"code":"FAI","name":"Fairbanks International","lat":64.81472222,"long":-147.859583335,"city":"Fairbanks, AK","state":"AK"},{"code":"JNU","name":"Juneau International","lat":58.35495370333333,"long":-134.57648147999998,"city":"Juneau, AK","state":"AK"},{"code":"KTN","name":"Ketchikan International","lat":55.35625,"long":-131.71388889,"city":"Ketchikan, AK","state":"AK"},{"code":"OME","name":"Nome Airport","lat":64.512166666,"long":-165.44422222199998,"city":"Nome, AK","state":"AK"},{"code":"OTZ","name":"Ralph Wien Memorial","lat":66.88538888800001,"long":-162.599833334,"city":"Kotzebue, AK","state":"AK"},{"code":"PSG","name":"Petersburg James A Johnson","lat":56.802055558000006,"long":-132.945055556,"city":"Petersburg, AK","state":"AK"},{"code":"SCC","name":"Deadhorse Airport","lat":70.19486111,"long":-148.46611111250002,"city":"Deadhorse, AK","state":"AK"},{"code":"SIT","name":"Sitka Rocky Gutierrez","lat":57.047388886,"long":-135.361444446,"city":"Sitka, AK","state":"AK"},{"code":"WRG","name":"Wrangell Airport","lat":56.48444444,"long":-132.368194445,"city":"Wrangell, AK","state":"AK"},{"code":"YAK","name":"Yakutat Airport","lat":59.506249999999994,"long":-139.66,"city":"Yakutat, AK","state":"AK"}]