[{"code":"BQN","name":"Ramey AFB | Rafael Hernandez","lat":18.495185183333334,"long":-67.12962962666666,"city":"Aguadilla, PR","state":"PR"},{"code":"GUM","name":"Agana Field | Guam International","lat":13.48388889,"long":144.79722222,"city":"Guam, TT","state":"TT"},{"code":"PPG","name":"Pago Pago International","lat":-14.332539681428571,"long":-170.71107143,"city":"Pago Pago, TT","state":"TT"},{"code":"PSE","name":"Ponce Airport | Mercedita","lat":18.009444442499998,"long":-66.563125,"city":"Ponce, PR","state":"PR"},{"code":"ROP","name":"Rota International | Rota Island International | Benjamin Taisacan Mangiona International | Benjamin Taisacan Manglona International","lat":14.174197526666667,"long":145.24061728333334,"city":"Rota, TT","state":"TT"},{"code":"SJU","name":"Puerto Rico International | Luis Munoz Marin International","lat":18.439861108333336,"long":-66.00212962666666,"city":"San Juan, PR","state":"PR"},{"code":"SPN","name":"Saipan International | Francisco C. Ada Saipan International","lat":15.12027778,"long":145.73018518666666,"city":"Saipan, TT","state":"TT"},{"code":"STT","name":"Harry S Truman | Cyril E King","lat":18.33722222,"long":-64.97333333,"city":"Charlotte Amalie, VI","state":"VI"},{"code":"STX","name":"Alexander Hamilton | Henry E. Rohlsen","lat":17.703263890000002,"long":-64.7996527775,"city":"Christiansted, VI","state":"VI"}]