[{"code":"HNL","name":"Honolulu International | Daniel K Inouye International","lat":21.318111112,"long":-157.921166668,"city":"Honolulu, HI","state":"HI"},{"code":"ITO","name":"General Lyman Field | Hilo International","lat":19.7225,"long":-155.05481481666666,"city":"Hilo, HI","state":"HI"},{"code":"JHM","name":"Kapalua West Maui | Kapalua Airport","lat":20.964583335,"long":-156.67513889,"city":"Kapalua, HI","state":"HI"},{"code":"KOA","name":"Keahole | Keahole-Kona International | Kona International Airport at Keahole | Ellison Onizuka Kona International at Keahole","lat":19.73888889,"long":-156.04555556,"city":"Kona, HI","state":"HI"},{"code":"LIH","name":"Lihue Airport","lat":21.97763889,"long":-159.34236111,"city":"Lihue, HI","state":"HI"},{"code":"LNY","name":"Lanai Airport","lat":20.78513889,"long":-156.950416665,"city":"Lanai, HI","state":"HI"},{"code":"MKK","name":"Molokai","lat":21.15277778,"long":-157.098194445,"city":"Hoolehua, HI","state":"HI"},{"code":"OGG","name":"Kahului Airport","lat":20.899583335000003,"long":-156.432083335,"city":"Kahului, HI","state":"HI"}]